City Name,City ID,Latitude,Longitude,Max Temperature,Humidity,Cloudiness,Wind Speed
rypefjord,847634.0,70.63,23.67,19.4,73.0,100.0,32.21
tiksi,2015306.0,71.69,128.87,-26.37,85.0,0.0,5.39
ventosa,2261732.0,39.13,-9.08,60.01,93.0,20.0,2.24
georgetown,1735106.0,5.41,100.34,80.6,74.0,20.0,3.36
mataura,6201424.0,-46.19,168.86,59.0,91.0,100.0,8.99
chapleau,5919915.0,47.84,-83.4,30.2,92.0,90.0,6.93
hermanus,3366880.0,-34.42,19.23,72.0,87.0,31.0,8.99
cabo san lucas,3985710.0,22.89,-109.91,73.99,60.0,100.0,1.99
tuktoyaktuk,6170031.0,69.45,-133.04,-23.8,74.0,75.0,12.75
leningradskiy,2123814.0,69.38,178.42,-18.24,95.0,98.0,6.35
jamestown,5122534.0,42.1,-79.24,32.0,74.0,75.0,5.82
nikolskoye,546105.0,59.7,30.79,33.8,96.0,90.0,11.18
qaanaaq,3831208.0,77.48,-69.36,-24.25,84.0,97.0,6.22
east london,1006984.0,-33.02,27.91,76.46,90.0,88.0,4.85
airai,1651810.0,-8.93,125.41,74.43,76.0,100.0,1.21
ixtapa,4004293.0,20.7,-105.2,77.0,65.0,90.0,3.49
busselton,2075265.0,-33.65,115.33,66.0,46.0,0.0,12.57
hambantota,1244926.0,6.12,81.12,76.6,77.0,96.0,17.2
shepsi,494846.0,44.04,39.15,42.3,92.0,100.0,32.06
necochea,3430443.0,-38.55,-58.74,82.99,49.0,38.0,10.0
port elizabeth,964420.0,-33.92,25.57,73.4,88.0,90.0,4.7
cape town,3369157.0,-33.93,18.42,69.01,82.0,25.0,9.17
mar del plata,3430863.0,-38.0,-57.56,87.8,29.0,60.0,11.41
buala,2109528.0,-8.14,159.59,85.3,74.0,93.0,16.49
san vicente,3428068.0,-26.62,-54.13,75.0,99.0,34.0,2.98
sisimiut,3419842.0,66.94,-53.67,-1.35,85.0,100.0,4.27
yellowknife,6185377.0,62.46,-114.35,-9.99,76.0,75.0,5.82
ushuaia,3833367.0,-54.8,-68.3,51.8,66.0,40.0,20.8
ostrovnoy,556268.0,68.05,39.51,-8.81,97.0,1.0,14.05
micheweni,153955.0,-4.97,39.83,80.67,81.0,100.0,4.54
gairo,2524683.0,39.85,9.5,57.0,93.0,5.0,9.17
rawson,3839307.0,-43.3,-65.1,96.8,12.0,75.0,33.33
port macquarie,2152659.0,-31.43,152.92,87.01,65.0,0.0,12.84
saldanha,3361934.0,-33.01,17.94,64.4,82.0,43.0,3.36
hobart,2163355.0,-42.88,147.33,66.99,42.0,20.0,18.34
bend,5713587.0,44.06,-121.32,57.2,58.0,75.0,14.99
norman wells,6089245.0,65.28,-126.83,-20.2,68.0,75.0,17.22
saint andrews,4593724.0,34.05,-81.13,51.8,76.0,40.0,6.93
lompoc,5367788.0,34.64,-120.46,78.8,29.0,1.0,5.82
broome,5110365.0,42.25,-75.83,34.0,80.0,90.0,0.63
yarim,69559.0,14.3,44.38,52.07,53.0,12.0,1.32
bredasdorp,1015776.0,-34.53,20.04,72.0,78.0,83.0,11.41
talnakh,1490256.0,69.49,88.4,-29.2,73.0,23.0,2.24
hailin,2037075.0,44.58,129.42,-3.32,95.0,2.0,2.3
les escoumins,6944110.0,48.11,-69.02,11.52,99.0,91.0,0.4
sargatskoye,1493004.0,55.61,73.5,-0.6,81.0,30.0,8.28
balabac,1728675.0,7.99,117.06,80.15,76.0,100.0,16.28
albany,5106841.0,42.6,-73.97,37.0,100.0,90.0,4.7
sorland,3137469.0,67.67,12.69,33.8,95.0,90.0,8.05
basco,1726449.0,20.45,121.97,69.48,65.0,81.0,20.51
tasiilaq,3424607.0,65.61,-37.64,23.0,79.0,100.0,20.8
arraial do cabo,3471451.0,-22.97,-42.03,80.11,85.0,88.0,10.36
kapaa,5848280.0,22.08,-159.32,78.8,83.0,75.0,21.92
punta arenas,3874787.0,-53.15,-70.92,59.0,47.0,75.0,16.11
oyama,1853483.0,36.3,139.8,46.0,37.0,0.0,2.17
alice springs,2077895.0,-23.7,133.88,66.2,100.0,90.0,8.05
victoria,1819729.0,22.29,114.16,62.6,72.0,20.0,12.75
new norfolk,2155415.0,-42.78,147.06,66.99,42.0,20.0,18.34
kaeo,2189343.0,-35.1,173.78,89.01,68.0,18.0,5.01
ribeira grande,3372707.0,38.52,-28.7,55.72,76.0,100.0,12.5
stony plain,6157536.0,53.53,-114.0,39.2,55.0,40.0,20.8
saskylakh,2017155.0,71.92,114.08,-29.09,92.0,4.0,6.78
santa rosa,1687894.0,14.31,121.11,72.0,78.0,40.0,3.36
ust-kuyga,2013921.0,70.02,135.6,-26.36,99.0,96.0,4.5
atar,2381334.0,20.52,-13.05,66.87,13.0,0.0,11.92
flinders,6255012.0,-34.58,150.86,79.0,78.0,90.0,8.05
port alfred,964432.0,-33.59,26.89,71.01,96.0,97.0,5.46
pevek,2122090.0,69.7,170.31,-22.25,99.0,100.0,6.85
dunedin,2191562.0,-45.87,170.5,56.1,98.0,100.0,7.14
isangel,2136825.0,-19.55,169.27,81.48,79.0,99.0,13.51
camabatela,2242885.0,-8.19,15.38,63.52,97.0,42.0,3.65
luanda,2240449.0,-8.84,13.23,82.4,83.0,20.0,5.82
clyde river,5924351.0,70.47,-68.59,-29.2,66.0,40.0,11.41
presidente epitacio,3452331.0,-21.76,-52.12,73.81,92.0,100.0,0.27
san cristobal,3628473.0,7.77,-72.22,86.0,58.0,40.0,10.29
xining,1788852.0,36.62,101.77,12.22,94.0,99.0,2.04
longyearbyen,2729907.0,78.22,15.64,15.8,92.0,90.0,5.82
bluff,2206939.0,-46.6,168.33,59.0,91.0,100.0,8.99
vestmannaeyjar,3412093.0,63.44,-20.27,30.42,71.0,4.0,5.73
luang prabang,1655559.0,19.89,102.13,53.28,96.0,0.0,0.65
iqaluit,5983720.0,63.75,-68.51,12.2,78.0,90.0,9.17
lufilufi,4035249.0,-13.87,-171.6,81.5,79.0,86.0,10.38
kamina,214614.0,-8.74,24.99,65.14,98.0,100.0,3.83
patitirion,255689.0,39.15,23.87,54.0,53.0,0.0,1.99
dikson,1507390.0,73.51,80.55,-14.71,96.0,44.0,12.62
alofi,4036284.0,-19.06,-169.92,84.2,74.0,59.0,10.29
saint george,5546220.0,37.1,-113.58,66.2,19.0,1.0,6.93
rocha,3440777.0,-34.48,-54.33,65.66,81.0,0.0,7.65
hilo,5855927.0,19.73,-155.09,75.2,69.0,75.0,18.34
salina,4278890.0,38.84,-97.61,60.8,38.0,1.0,19.46
ginda,1253628.0,30.69,78.49,30.74,41.0,0.0,6.22
vaini,4032243.0,-21.2,-175.2,82.4,69.0,20.0,10.29
shieli,1524801.0,44.17,66.75,37.76,57.0,100.0,16.46
rikitea,4030556.0,-23.12,-134.97,79.56,78.0,72.0,12.86
samarai,2132606.0,-10.62,150.67,78.98,85.0,100.0,4.63
tigil,2120612.0,57.8,158.67,3.25,95.0,100.0,6.76
saint-francois,2980080.0,46.42,3.91,53.6,66.0,90.0,4.7
kutum,371745.0,14.2,24.67,46.96,26.0,100.0,4.76
upata,3625710.0,8.01,-62.4,74.64,75.0,33.0,7.16
castro,3466704.0,-24.79,-50.01,66.33,98.0,31.0,7.09
ekhabi,2122614.0,53.51,142.97,-5.49,98.0,0.0,3.69
aklavik,5882953.0,68.22,-135.01,-20.2,55.0,20.0,2.24
oromocto,6094407.0,45.84,-66.48,32.0,73.0,90.0,2.24
cherskiy,2126199.0,68.75,161.3,-29.63,97.0,100.0,4.81
souillac,933995.0,-20.52,57.52,79.0,83.0,40.0,9.17
lavrentiya,4031637.0,65.58,-171.0,-15.25,86.0,100.0,10.56
springdale,4132093.0,36.19,-94.13,55.4,26.0,1.0,8.05
cidreira,3466165.0,-30.18,-50.21,75.2,75.0,9.0,17.36
atuona,4020109.0,-9.8,-139.03,81.57,75.0,0.0,18.52
filadelfia,4560349.0,39.95,-75.16,43.0,80.0,90.0,2.98
bereda,3105522.0,43.27,-7.54,64.0,87.0,40.0,13.87
pyay,1299154.0,18.82,95.22,59.95,65.0,0.0,2.13
severnyy,496358.0,50.68,36.55,32.0,95.0,90.0,8.95
khatanga,2022572.0,71.97,102.5,-28.52,96.0,58.0,11.25
barrow,5880054.0,71.29,-156.79,-29.2,95.0,40.0,6.93
leua,3059101.0,48.22,18.61,51.01,100.0,90.0,2.24
saint-philippe,935215.0,-21.36,55.77,77.0,78.0,8.0,6.93
onguday,1496130.0,50.75,86.15,8.26,45.0,100.0,2.08
hofn,2630299.0,64.25,-15.21,33.46,89.0,100.0,16.02
obo,236950.0,5.4,26.49,66.4,26.0,16.0,4.05
rincon,4218882.0,32.3,-81.24,48.99,87.0,90.0,11.41
kommunar,545788.0,59.62,30.39,33.8,95.0,90.0,11.18
lebu,3883457.0,-37.62,-73.65,59.63,70.0,75.0,5.7
zanjan,111453.0,36.67,48.48,11.79,97.0,91.0,4.74
kodiak,5866583.0,57.79,-152.41,24.8,38.0,1.0,24.16
ketchikan,5554428.0,55.34,-131.65,33.8,80.0,90.0,5.82
klaksvik,2618795.0,62.23,-6.59,35.6,69.0,99.0,11.41
sao joao da barra,3448903.0,-21.64,-41.05,77.7,91.0,66.0,1.74
hasaki,2112802.0,35.73,140.83,37.4,64.0,20.0,5.82
shetpe,608324.0,44.17,52.12,34.7,93.0,100.0,17.54
kulhudhuffushi,1337613.0,6.62,73.07,81.01,68.0,5.0,13.94
wewak,2083537.0,-3.55,143.63,83.08,67.0,19.0,1.07
artyom,587207.0,40.47,50.33,41.0,86.0,90.0,16.11
pacific grove,5380437.0,36.62,-121.92,73.99,53.0,1.0,12.8
puerto ayora,3652764.0,-0.74,-90.35,82.4,65.0,40.0,18.34
esperantina,3400740.0,-3.9,-42.23,75.07,89.0,40.0,5.5
muros,3115824.0,42.78,-9.06,64.0,100.0,90.0,12.75
puerto quijarro,3444201.0,-17.78,-57.77,76.08,91.0,100.0,3.71
mahebourg,934322.0,-20.41,57.7,79.0,83.0,40.0,9.17
chuy,3443061.0,-33.7,-53.46,69.85,76.0,0.0,11.01
sambava,1056899.0,-14.27,50.17,72.7,85.0,100.0,3.15
crotone,2524881.0,39.09,17.12,50.77,80.0,0.0,2.28
bambous virieux,1106677.0,-20.34,57.76,79.0,83.0,40.0,9.17
san patricio,3985168.0,19.22,-104.7,84.2,62.0,90.0,5.82
harper,2276492.0,4.38,-7.72,76.64,94.0,18.0,3.58
tabou,2281120.0,4.42,-7.35,76.64,94.0,18.0,3.58
ilulissat,3423146.0,69.22,-51.1,6.8,71.0,100.0,3.36
villa carlos paz,3832791.0,-31.42,-64.5,86.0,48.0,0.0,10.29
isetskoye,1505466.0,56.49,65.32,12.72,92.0,100.0,8.86
sitka,5557293.0,57.05,-135.33,33.8,86.0,40.0,4.7
sola,2134814.0,-13.88,167.55,82.92,79.0,100.0,13.94
sale,2537763.0,34.04,-6.82,57.99,93.0,0.0,8.05
oranjemund,3354071.0,-28.55,16.43,64.13,87.0,75.0,7.81
thinadhoo,1337610.0,0.53,72.93,82.27,71.0,100.0,12.86
olafsvik,3414079.0,64.89,-23.71,30.13,83.0,71.0,9.62
carnarvon,2074865.0,-24.87,113.63,75.2,69.0,0.0,11.41
providencia,3991622.0,28.72,-111.58,88.0,8.0,40.0,4.7
westport,4845585.0,41.14,-73.36,42.01,80.0,90.0,5.82
chulakivka,710368.0,46.36,32.35,41.0,99.0,29.0,8.88
nyrob,516588.0,60.73,56.72,7.88,96.0,93.0,2.26
srednekolymsk,2121025.0,67.45,153.68,-22.14,97.0,98.0,5.82
port hedland,2063042.0,-20.32,118.57,80.6,78.0,0.0,9.17
nakusp,6085665.0,50.25,-117.8,27.95,81.0,70.0,7.61
padang,1633419.0,-0.95,100.35,69.75,91.0,96.0,6.17
kruisfontein,986717.0,-34.0,24.73,70.63,88.0,100.0,5.53
nichinan,1855476.0,31.6,131.37,42.8,72.0,40.0,8.05
tahta,347634.0,26.77,31.5,47.97,63.0,0.0,6.64
bombay,1275339.0,19.01,72.85,71.6,83.0,0.0,4.81
avarua,4035715.0,-21.21,-159.78,82.4,78.0,8.0,4.7
hualmay,3939761.0,-11.1,-77.61,73.35,74.0,91.0,6.8
thompson,6165406.0,55.74,-97.86,12.2,85.0,90.0,9.17
butaritari,2110227.0,3.07,172.79,84.06,77.0,94.0,16.87
vilhena,3924679.0,-12.74,-60.15,78.8,88.0,40.0,4.7
grindavik,3416888.0,63.84,-22.43,26.6,86.0,40.0,9.17
nanortalik,3421765.0,60.14,-45.24,16.32,63.0,11.0,17.25
poum,2138555.0,-20.23,164.02,81.37,80.0,100.0,23.13
katsuura,2112309.0,35.13,140.3,46.4,31.0,20.0,16.11
mocuba,1024312.0,-16.84,36.99,72.3,97.0,86.0,1.19
jacksonville,4160021.0,30.33,-81.66,57.2,81.0,90.0,13.87
hithadhoo,1282256.0,-0.6,73.08,82.36,71.0,100.0,13.02
butterworth,1735076.0,5.4,100.36,80.6,74.0,20.0,3.36
sinnamary,3380290.0,5.38,-52.95,78.6,75.0,24.0,17.43
torbay,6167817.0,47.67,-52.73,15.01,78.0,5.0,6.93
singaraja,1626932.0,-8.11,115.09,82.51,73.0,49.0,1.14
bogorodskoye,575521.0,56.55,37.88,28.99,93.0,100.0,11.27
bengkulu,1649150.0,-3.8,102.27,74.01,91.0,100.0,4.81
agadez,2448083.0,19.75,10.25,58.96,24.0,0.0,1.88
seredka,496859.0,58.16,28.19,39.2,100.0,100.0,8.95
baykit,1510689.0,61.67,96.37,-32.06,97.0,75.0,0.78
geraldton,2070998.0,-28.77,114.6,77.0,25.0,8.0,17.22
kathu,1153035.0,7.92,98.33,77.0,78.0,20.0,2.24
kenitra,2544571.0,34.26,-6.58,57.99,93.0,0.0,8.05
saint-pierre,935214.0,-21.34,55.48,77.0,78.0,0.0,6.93
verkhnyaya inta,1487332.0,65.98,60.31,0.91,96.0,100.0,9.31
kavaratti,1267390.0,10.57,72.64,79.23,68.0,56.0,5.32
kyrylivka,705852.0,46.38,35.37,38.71,90.0,30.0,6.46
meulaboh,1214488.0,4.14,96.13,81.3,80.0,86.0,7.83
rorvik,3141310.0,64.86,11.24,43.45,73.0,95.0,32.7
kavieng,2094342.0,-2.57,150.8,84.25,74.0,51.0,14.92
port blair,1259385.0,11.67,92.75,78.8,83.0,20.0,9.17
subate,455102.0,56.01,25.91,43.7,95.0,100.0,10.71
shelburne,6145890.0,44.08,-80.2,30.2,92.0,90.0,8.57
kalat,1175296.0,29.02,66.59,32.63,52.0,0.0,2.33
asau,686090.0,46.43,26.4,51.8,62.0,76.0,10.29
cogoleto,3178479.0,44.39,8.64,55.4,93.0,40.0,6.93
morristown,4642938.0,36.21,-83.29,45.0,93.0,75.0,5.82
petropavlovsk-kamchatskiy,2122104.0,53.05,158.65,8.6,39.0,0.0,6.71
tuatapere,2180815.0,-46.13,167.68,59.0,91.0,100.0,8.99
salalah,286621.0,17.02,54.09,71.6,56.0,75.0,4.7
haines junction,5969025.0,60.75,-137.51,-7.44,96.0,100.0,6.42
carutapera,3402648.0,-1.2,-46.02,81.32,82.0,62.0,18.86
maragogi,3395458.0,-9.01,-35.22,81.73,82.0,94.0,13.44
karakol,1528121.0,42.49,78.39,16.0,29.0,45.0,5.41
chifeng,2038067.0,42.27,118.96,9.9,89.0,100.0,4.45
panjab,1131162.0,34.39,67.02,-1.05,62.0,0.0,3.24
ulladulla,2145554.0,-35.35,150.47,90.0,78.0,90.0,8.05
bethel,5282297.0,41.37,-73.41,39.99,93.0,90.0,1.77
komsomolskiy,1513491.0,40.43,71.72,32.0,68.0,81.0,6.93
labuan,1733782.0,5.28,115.24,78.8,88.0,75.0,3.36
marang,1734715.0,5.21,103.21,78.8,83.0,20.0,5.82
codrington,2171099.0,-38.27,141.97,63.21,73.0,71.0,28.9
bosaso,64013.0,11.28,49.18,74.7,74.0,60.0,14.18
byron bay,2172880.0,-28.65,153.62,87.01,51.0,1.0,13.87
langsa,1214724.0,4.47,97.97,74.52,90.0,69.0,1.19
sibolga,1213855.0,1.74,98.78,70.88,95.0,100.0,3.89
beringovskiy,2126710.0,63.05,179.32,-24.21,92.0,17.0,21.52
esperance,2071860.0,-33.87,121.9,62.6,67.0,90.0,2.24
narsaq,3421719.0,60.92,-46.05,3.2,45.0,0.0,3.36
kahului,5847411.0,20.89,-156.47,82.4,51.0,75.0,11.41
chimbote,3698304.0,-9.09,-78.58,75.81,68.0,83.0,7.25
coahuayana,4013679.0,18.73,-103.68,80.6,47.0,90.0,2.62
balagansk,2027198.0,54.01,103.05,-6.34,98.0,100.0,1.59
progreso,3521108.0,21.28,-89.67,75.2,64.0,75.0,11.41
labuhan,8079926.0,-6.88,112.21,77.0,88.0,99.0,2.68
gladstone,2165478.0,-23.85,151.25,89.01,61.0,40.0,9.17
virginia beach,4791259.0,36.85,-75.98,46.99,81.0,90.0,9.6
moroto,229112.0,2.53,34.67,67.95,82.0,96.0,7.27
mkokotoni,153585.0,-5.88,39.25,81.07,81.0,100.0,6.71
casambalangan,1718214.0,18.38,122.13,70.59,77.0,99.0,18.97
itoman,1861280.0,26.12,127.67,57.2,58.0,20.0,6.93
sorsk,1491360.0,54.0,90.25,-1.34,89.0,99.0,3.24
kirovskaya,548390.0,46.97,40.04,39.2,100.0,40.0,8.95
faya,110690.0,18.39,42.45,51.8,87.0,22.0,3.0
te anau,2181625.0,-45.42,167.72,58.48,97.0,100.0,3.04
impfondo,2259655.0,1.64,18.07,72.3,32.0,39.0,2.24
talcahuano,3870282.0,-36.72,-73.12,68.0,82.0,75.0,12.75
tiznit,2527087.0,29.58,-9.5,60.6,25.0,0.0,4.32
honningsvag,779554.0,70.98,25.97,21.2,80.0,100.0,23.24
avera,4231997.0,33.19,-82.53,51.8,81.0,40.0,6.93
sindou,2355548.0,10.67,-5.17,73.26,14.0,3.0,5.23
pangnirtung,6096551.0,66.15,-65.71,-4.88,97.0,100.0,4.34
bima,1648759.0,-8.47,118.72,77.5,87.0,98.0,0.43
oskemen,1520316.0,49.96,82.61,-11.2,83.0,90.0,2.24
marienburg,3092472.0,54.04,19.03,46.0,87.0,40.0,14.99
strezhevoy,1490796.0,60.73,77.59,6.8,84.0,100.0,11.18
changzhou,1815456.0,31.78,119.97,46.0,65.0,75.0,1.99
vardo,777019.0,70.37,31.11,19.17,92.0,100.0,24.58
nizwa,286987.0,22.93,57.53,56.23,46.0,1.0,2.37
penzance,2640377.0,50.12,-5.54,53.01,100.0,100.0,11.41
guerrero negro,4021858.0,27.98,-114.06,78.03,16.0,0.0,7.16
ambilobe,1082243.0,-13.2,49.05,74.34,90.0,96.0,1.01
adrar,2381972.0,20.5,-10.07,66.11,13.0,0.0,10.25
naze,1855540.0,28.37,129.48,59.0,62.0,40.0,4.7
sakakah,102527.0,29.97,40.21,42.8,56.0,0.0,4.7
gamboula,2386756.0,4.12,15.14,68.86,28.0,4.0,1.97
tiarei,4033356.0,-17.53,-149.33,77.0,88.0,75.0,13.87
coquimbo,3893629.0,-29.95,-71.34,68.0,72.0,40.0,10.29
dingzhou,1812728.0,38.51,115.0,28.4,79.0,58.0,4.47
lata,2738381.0,40.16,-8.33,60.8,93.0,90.0,3.36
luganville,2136150.0,-15.53,167.17,84.2,79.0,75.0,11.41
nehe,2035610.0,48.48,124.83,-5.6,84.0,0.0,7.74
neryungri,2019309.0,56.67,124.65,-20.34,98.0,100.0,6.6
kokkola,651951.0,63.83,23.08,32.0,97.0,90.0,8.05
camacha,2270385.0,33.08,-16.33,64.4,93.0,20.0,6.93
besancon,3033123.0,47.25,6.02,51.8,87.0,90.0,11.41
lagoa,3372964.0,39.05,-27.98,59.88,69.0,100.0,15.19
sebrovo,497995.0,50.1,43.3,35.01,94.0,100.0,9.8
provideniya,4031574.0,64.38,-173.3,-16.01,92.0,85.0,10.36
sarangani,1687186.0,5.4,125.46,81.46,75.0,95.0,3.83
laguna,5364271.0,38.42,-121.42,68.0,63.0,1.0,3.36
atbasar,1526038.0,51.8,68.33,6.21,86.0,0.0,7.16
severo-kurilsk,2121385.0,50.68,156.12,19.38,73.0,0.0,13.76
zafarabad,1252702.0,25.7,82.73,53.6,93.0,0.0,3.36
naron,3115739.0,43.52,-8.15,64.0,87.0,40.0,13.87
palmer,4946620.0,42.16,-72.33,37.99,98.0,90.0,0.96
cozumel,3530103.0,20.51,-86.95,80.6,74.0,75.0,14.99
sigli,1213821.0,5.38,95.96,81.95,75.0,98.0,9.71
maneadero,3996737.0,31.72,-116.57,71.01,58.0,0.0,1.99
lucea,3489657.0,18.45,-78.17,82.4,78.0,75.0,24.16
mount isa,2065594.0,-20.73,139.5,80.6,88.0,100.0,4.7
maniitsoq,3421982.0,65.42,-52.9,10.83,72.0,100.0,4.07
kaitangata,2208248.0,-46.28,169.85,54.91,96.0,100.0,14.79
banes,3567869.0,20.96,-75.72,89.6,40.0,40.0,4.7
la ronge,6050066.0,55.1,-105.28,26.6,73.0,90.0,10.29
raga,368246.0,8.46,25.68,62.46,23.0,28.0,4.63
angoche,1052944.0,-16.23,39.91,75.42,92.0,100.0,1.41
sechura,3691954.0,-5.56,-80.82,74.44,84.0,90.0,15.21
minab,123941.0,27.15,57.08,53.6,87.0,26.0,4.7
olinda,3393536.0,-8.01,-34.86,82.4,78.0,40.0,5.82
hobyo,57000.0,5.35,48.53,74.34,75.0,97.0,14.29
bardiyah,80509.0,31.76,25.09,58.59,74.0,61.0,7.0
santa cruz,3904906.0,-17.8,-63.17,86.0,62.0,20.0,16.11
kushiro,2129376.0,42.98,144.37,15.8,72.0,75.0,6.93
kilis,307864.0,36.72,37.12,35.6,69.0,58.0,1.43
vanimo,2084442.0,-2.67,141.3,80.47,76.0,70.0,8.19
catuday,1717787.0,16.29,119.81,74.53,75.0,95.0,15.7
nome,5870133.0,64.5,-165.41,-0.4,77.0,90.0,18.34
ibirapitanga,3461572.0,-14.16,-39.37,70.59,98.0,100.0,1.9
amahai,1651591.0,-3.33,128.92,83.23,72.0,97.0,16.98
sandwick,2638534.0,60.0,-1.25,41.0,56.0,66.0,19.46
machico,2266895.0,32.7,-16.77,70.0,42.0,20.0,6.93
gweru,890422.0,-19.45,29.82,62.78,70.0,100.0,5.61
vila,7117100.0,42.03,-8.16,64.0,100.0,90.0,10.29
mount gambier,2156643.0,-37.83,140.77,59.0,93.0,61.0,17.22
antalaha,1071296.0,-14.9,50.28,81.16,79.0,100.0,14.92
paamiut,3421193.0,61.99,-49.67,11.55,43.0,5.0,6.89
zeya,2012593.0,53.75,127.27,-4.7,98.0,100.0,3.27
shimoda,1852357.0,34.67,138.95,45.0,59.0,75.0,4.7
maldonado,3441890.0,-34.67,-54.92,77.0,61.0,20.0,17.22
san quintin,3984997.0,30.48,-115.95,66.9,38.0,0.0,10.6
baculin,1729469.0,7.45,126.58,71.4,93.0,100.0,7.63
lipovtsy,2020752.0,44.2,131.72,5.81,85.0,0.0,3.91
dalnerechensk,2025159.0,45.93,133.72,3.13,92.0,55.0,8.93
santa fe,3836277.0,-31.63,-60.7,86.0,42.0,0.0,1.99
florence,3176959.0,43.77,11.25,57.99,93.0,75.0,2.24
kedougou,2250645.0,12.56,-12.17,77.0,14.0,8.0,3.33
tricase,2522857.0,39.93,18.36,53.01,87.0,75.0,3.36
thunder bay,6166142.0,48.4,-89.32,35.6,59.0,75.0,9.17
kozhevnikovo,1502257.0,56.26,83.97,5.0,85.0,86.0,4.38
nhulunbuy,2064735.0,-12.23,136.77,82.4,78.0,100.0,6.93
aljezur,2271968.0,37.32,-8.8,55.99,99.0,17.0,5.01
maumere,1635815.0,-8.62,122.21,79.93,77.0,100.0,4.23
shache,1280037.0,38.42,77.24,22.21,65.0,0.0,0.92
mao,2514301.0,39.89,4.27,53.6,81.0,28.0,4.7
kudahuvadhoo,1337607.0,2.67,72.89,81.81,72.0,100.0,11.52
hami,1529484.0,42.8,93.45,10.65,57.0,0.0,1.19
ballina,2177069.0,-28.87,153.57,84.99,61.0,1.0,8.05
fukue,1863997.0,32.69,128.84,48.2,57.0,20.0,8.05
vila velha,3445026.0,-20.33,-40.29,80.6,78.0,33.0,11.41
hailar,2037078.0,49.2,119.7,-14.51,93.0,0.0,12.39
shahr-e babak,115781.0,30.12,55.12,38.82,60.0,6.0,14.34
kimbe,2093967.0,-5.55,150.14,83.05,80.0,100.0,2.62
port hardy,6111862.0,50.7,-127.42,41.0,75.0,40.0,10.29
sandpoint,5606401.0,48.28,-116.55,48.2,69.0,40.0,18.34
cleburne,4681976.0,32.35,-97.39,68.0,22.0,1.0,4.7
bathurst,2176632.0,-33.42,149.58,92.53,29.0,1.0,19.44
tornio,634096.0,65.85,24.13,24.8,92.0,90.0,12.75
pompeu,3453240.0,-19.22,-44.94,74.07,90.0,100.0,2.8
ciudad bolivar,3645532.0,8.12,-63.55,83.5,55.0,60.0,14.41
caraballeda,3646767.0,10.61,-66.85,82.4,74.0,20.0,8.05
coyah,2595299.0,9.75,-13.42,78.04,85.0,67.0,5.48
americus,4179667.0,32.07,-84.23,50.0,87.0,90.0,8.05
kloulklubed,7671223.0,7.04,134.26,77.0,83.0,75.0,3.36
mitsamiouli,921786.0,-11.38,43.28,83.1,74.0,26.0,9.4
fortuna,5563839.0,40.6,-124.16,57.0,93.0,90.0,4.79
turukhansk,1488903.0,65.82,87.98,-29.38,89.0,0.0,5.23
mayo,4362001.0,38.89,-76.51,48.2,87.0,90.0,2.08
constitucion,3893726.0,-35.33,-72.42,61.2,92.0,44.0,10.4
arman,2127060.0,59.7,150.17,-2.38,80.0,0.0,7.14
kingman,5301067.0,35.19,-114.05,75.99,19.0,1.0,6.93
leeton,2160413.0,-34.57,146.4,77.0,60.0,0.0,11.41
ponta do sol,2264557.0,32.67,-17.1,70.0,42.0,20.0,6.93
sao filipe,3374210.0,14.9,-24.5,76.86,43.0,0.0,8.01
soyo,2236967.0,-6.13,12.37,79.95,80.0,98.0,4.61
biak,1637001.0,-0.91,122.88,82.35,71.0,100.0,6.17
dangriga,3582228.0,16.97,-88.23,82.4,83.0,75.0,9.17
alugan,1731248.0,12.22,125.48,76.89,73.0,92.0,18.16
itarema,3393692.0,-2.92,-39.92,75.92,84.0,0.0,3.87
zhigansk,2012530.0,66.77,123.37,-31.5,94.0,50.0,8.59
sant,668091.0,47.45,24.9,42.01,84.0,100.0,1.99
sobolevo,525426.0,54.43,31.9,35.31,97.0,100.0,12.24
lasa,3175096.0,46.62,10.7,37.99,86.0,20.0,5.82
wuwei,1803936.0,37.93,102.64,17.74,54.0,0.0,6.2
chokurdakh,2126123.0,70.63,147.92,-17.21,98.0,100.0,5.84
matara,1235846.0,5.95,80.54,70.92,80.0,100.0,8.66
ponta delgada,3372783.0,37.73,-25.67,57.2,93.0,40.0,8.34
hokitika,2206894.0,-42.72,170.97,64.26,92.0,100.0,24.49
altay,1529651.0,47.87,88.12,9.73,37.0,99.0,4.63
novyy urgal,2047258.0,51.07,132.56,-8.41,98.0,100.0,2.3
marsh harbour,3571913.0,26.54,-77.06,74.91,82.0,89.0,23.64
margate,2643044.0,51.38,1.39,46.4,75.0,67.0,16.11
dalvik,2632287.0,65.97,-18.53,14.0,92.0,98.0,6.17
evensk,2125693.0,61.95,159.23,-15.81,72.0,22.0,13.91
ambon,1651531.0,-3.7,128.18,84.2,74.0,40.0,10.29
kurilsk,2123979.0,45.23,147.88,22.78,78.0,89.0,9.35
okha,2122614.0,53.57,142.95,-5.49,98.0,0.0,3.69
catanzaro,2525059.0,38.89,16.6,57.2,82.0,40.0,5.82
ngunguru,2186111.0,-35.62,174.5,84.0,58.0,48.0,5.99
swan river,6160362.0,52.11,-101.27,25.56,97.0,100.0,5.03
marzuq,72181.0,14.4,46.47,62.44,66.0,2.0,3.13
vila franca do campo,3372472.0,37.72,-25.43,57.2,93.0,40.0,8.34
alpinopolis,3472507.0,-20.86,-46.39,67.24,96.0,100.0,2.24
gayeri,2360541.0,12.65,0.49,70.63,13.0,15.0,8.63
grimshaw,5967157.0,56.18,-117.6,33.8,64.0,40.0,18.34
kirakira,2178753.0,-10.45,161.92,84.97,67.0,81.0,5.37
sioux lookout,6148373.0,50.1,-91.92,30.2,63.0,90.0,6.93
beloha,1067565.0,-25.17,45.05,75.06,76.0,0.0,11.34
lodja,211647.0,-3.48,23.43,70.23,90.0,70.0,1.72
jasper,4392354.0,37.2,-94.35,54.0,37.0,1.0,10.29
mackay,2159220.0,-21.15,149.2,87.01,66.0,40.0,9.17
wasserburg,2813758.0,48.44,10.27,50.0,81.0,75.0,12.75
khani,610864.0,41.96,42.96,33.8,70.0,90.0,3.36
berdigestyakh,2026861.0,62.1,126.7,-29.61,97.0,50.0,4.45
manzanillo,3547867.0,20.34,-77.12,77.18,80.0,0.0,8.97
dryden,5942913.0,49.78,-92.75,30.2,63.0,90.0,6.93
djambala,2260401.0,-2.54,14.75,71.74,89.0,52.0,5.99
pangody,1495626.0,65.85,74.49,-7.02,97.0,100.0,22.82
takoradi,2294915.0,4.88,-1.76,77.72,89.0,29.0,2.1
port antonio,3489005.0,18.18,-76.46,82.4,78.0,20.0,24.16
mandan,5690366.0,46.83,-100.89,48.99,60.0,1.0,19.46
brownsville,4676740.0,25.9,-97.5,71.6,28.0,1.0,3.36
dingle,1714733.0,11.0,122.67,72.7,84.0,51.0,11.97
caravelas,3466980.0,-17.71,-39.25,80.1,86.0,3.0,15.48
caraguatay,3435679.0,-26.61,-54.78,75.4,70.0,12.0,2.17
hamilton,4513583.0,39.18,-84.53,39.99,80.0,1.0,8.05
black river,3491355.0,18.03,-77.85,82.4,78.0,75.0,24.16
palanca,671471.0,46.53,26.12,51.8,62.0,96.0,10.29
antoniny,713316.0,49.81,26.88,41.92,88.0,96.0,10.13
namatanai,2090021.0,-3.67,152.43,84.47,70.0,39.0,9.33
ancud,3899695.0,-41.87,-73.82,59.0,62.0,20.0,10.29
burnie,2173125.0,-41.07,145.92,57.99,90.0,79.0,4.0
bulgan,2032201.0,48.81,103.53,-14.8,78.0,0.0,3.27
antofagasta,3899539.0,-23.65,-70.4,72.0,64.0,20.0,13.87
yanam,1252795.0,16.73,82.22,69.06,88.0,17.0,2.26
fez,2548885.0,34.04,-5.0,48.2,81.0,0.0,4.7
crowley,4321310.0,30.21,-92.37,62.6,57.0,1.0,8.05
ravar,118704.0,31.27,56.81,45.84,40.0,0.0,5.32
athens,264371.0,37.98,23.72,55.0,87.0,0.0,4.36
mysen,3145094.0,59.55,11.33,42.01,93.0,99.0,8.05
kanniyakumari,1268008.0,8.08,77.57,78.21,75.0,44.0,21.77
galeana,4006081.0,24.83,-100.07,53.44,60.0,87.0,3.51
neuquen,3843123.0,-38.95,-68.06,89.6,19.0,8.0,19.46
saint-joseph,6690296.0,-21.37,55.62,77.0,78.0,0.0,6.93
moron,3430545.0,-34.65,-58.62,86.0,28.0,0.0,5.82
vanavara,2013727.0,60.34,102.28,-27.0,98.0,95.0,1.03
siparia,3573681.0,10.13,-61.5,80.6,78.0,20.0,10.29
poim,507643.0,53.03,43.19,32.54,98.0,100.0,8.03
wanning,1791779.0,18.8,110.4,68.68,88.0,76.0,4.47
mana,3381041.0,5.66,-53.78,71.11,91.0,25.0,2.89
kortkeros,544397.0,61.81,51.58,-2.2,84.0,44.0,2.24
nouadhibou,2377457.0,20.93,-17.03,69.8,37.0,0.0,11.41
clarence town,2171465.0,-32.58,151.78,100.99,29.0,85.0,21.92
gazli,1513990.0,40.13,63.45,49.6,44.0,96.0,18.95
haverfordwest,2647311.0,51.8,-4.97,48.99,87.0,100.0,14.99
arlit,2447513.0,18.74,7.39,62.64,18.0,0.0,2.86
goderich,5962442.0,43.75,-81.72,32.0,91.0,100.0,11.01
ternate,1624041.0,0.8,127.4,80.55,70.0,50.0,1.28
jalingo,2336589.0,8.88,11.37,69.33,15.0,13.0,6.78
buraydah,107304.0,26.33,43.98,41.0,56.0,0.0,3.36
salamanca,3111107.0,40.83,-6.0,51.8,93.0,75.0,1.12
faanui,4034551.0,-16.48,-151.75,82.54,78.0,86.0,25.66
ugoofaaru,1337619.0,5.67,73.0,80.74,75.0,1.0,16.04
portland,5746545.0,45.52,-122.68,50.0,71.0,90.0,3.36
bandarbeyla,64814.0,9.49,50.81,75.13,74.0,71.0,17.34
zhuhai,1790437.0,22.28,113.57,62.6,82.0,40.0,9.17
oussouye,2246901.0,12.48,-16.55,78.8,94.0,0.0,3.71
richards bay,962367.0,-28.78,32.04,77.27,83.0,33.0,16.84
domoni,921906.0,-12.26,44.53,82.35,75.0,26.0,5.32
alyangula,2079582.0,-13.85,136.42,82.4,88.0,100.0,5.82
porangatu,3453014.0,-13.44,-49.15,74.61,74.0,60.0,1.83
phangnga,1151464.0,8.45,98.53,77.0,78.0,20.0,2.24
abalak,1512223.0,58.13,68.59,10.08,92.0,100.0,7.18
owando,2255542.0,-0.48,15.9,74.61,79.0,78.0,2.75
payson,5779548.0,40.04,-111.73,51.8,52.0,1.0,4.36
shakawe,933077.0,-18.37,21.85,71.62,73.0,33.0,4.07
broken hill,2173911.0,-31.95,141.43,64.4,63.0,75.0,20.8
abhar,145034.0,36.15,49.22,16.45,96.0,98.0,12.48
meadville,5200644.0,41.64,-80.15,34.0,69.0,90.0,9.17
olean,5129780.0,42.08,-78.43,30.99,74.0,40.0,3.02
pisco,3932145.0,-13.7,-76.22,72.0,30.0,75.0,23.04
riyadh,108410.0,24.69,46.72,51.8,34.0,12.0,6.93
racoviteni,669308.0,45.37,26.9,47.28,72.0,96.0,5.77
gat,293842.0,31.61,34.76,55.99,100.0,75.0,3.36
bathsheba,3374083.0,13.22,-59.52,80.6,74.0,40.0,17.22
singarayakonda,1256176.0,15.25,80.03,73.38,86.0,0.0,8.59
gorontalo,1643837.0,0.54,123.06,79.05,79.0,100.0,4.05
kabompo,916246.0,-13.59,24.2,63.18,98.0,100.0,3.69
kaka,161901.0,37.35,59.61,50.72,43.0,100.0,17.9
boa vista,3664980.0,2.82,-60.67,87.8,45.0,20.0,14.99
sayyan,70979.0,15.17,44.32,50.32,50.0,15.0,1.66
usolye,478269.0,59.43,56.68,24.01,94.0,97.0,2.62
leh,1264976.0,34.17,77.58,-16.51,44.0,0.0,3.53
kempele,653253.0,64.92,25.58,25.0,92.0,90.0,17.22
upernavik,3418910.0,72.79,-56.15,-25.44,96.0,63.0,9.53
colina,3465935.0,-20.71,-48.54,71.51,95.0,100.0,5.01
kisangani,212730.0,0.52,25.2,74.23,72.0,69.0,2.06
roma,5134295.0,43.21,-75.46,30.99,86.0,90.0,0.45
lykhivka,703079.0,48.69,33.92,35.02,90.0,49.0,9.15
andradas,3472254.0,-22.07,-46.57,65.3,97.0,100.0,1.86
salaga,2295684.0,8.55,-0.52,78.46,12.0,55.0,4.83
chengde,2038087.0,40.97,117.94,17.92,93.0,100.0,1.23
touros,3386213.0,-5.2,-35.46,80.6,83.0,40.0,6.93
teahupoo,4033543.0,-17.83,-149.27,78.01,88.0,75.0,13.87
sampit,1628884.0,-2.53,112.95,77.32,93.0,69.0,1.88
kununurra,2068110.0,-15.77,128.73,84.2,74.0,90.0,2.24
acari,3948613.0,-15.43,-74.62,69.04,80.0,68.0,3.8
koch bihar,1266436.0,26.32,89.43,54.41,74.0,0.0,1.95
dicabisagan,1715015.0,17.08,122.42,68.95,85.0,100.0,9.01
chulym,1507679.0,55.1,80.96,-1.52,87.0,0.0,7.2
winslow,5321473.0,35.02,-110.7,57.2,28.0,1.0,5.82
dawson creek,5935804.0,55.77,-120.24,30.2,50.0,1.0,26.4
montijo,2265788.0,38.71,-8.97,60.01,93.0,20.0,2.24
nicoya,3622716.0,10.15,-85.45,91.4,43.0,56.0,12.75
pafos,146214.0,34.77,32.42,46.4,75.0,0.0,9.17
borzya,2026126.0,50.38,116.52,-16.83,92.0,0.0,7.96
niort,2990354.0,46.33,-0.33,55.4,93.0,90.0,10.29
hoganas,2706003.0,56.2,12.56,45.0,87.0,97.0,24.16
half moon bay,5354943.0,37.46,-122.43,70.0,68.0,20.0,6.93
preobrazheniye,2017658.0,42.9,133.91,15.53,61.0,0.0,6.02
san jose de rio tinto,3602066.0,14.93,-85.7,72.0,76.0,18.0,2.57
teluk nibung,1213493.0,3.0,99.82,78.85,85.0,100.0,12.64
hongjiang,1808106.0,27.11,110.0,44.91,96.0,98.0,2.68
kurchum,1521762.0,48.57,83.65,0.05,67.0,100.0,5.59
grande riviere du nord,3724439.0,19.58,-72.18,80.6,65.0,20.0,9.17
general roca,3855065.0,-39.03,-67.58,89.6,19.0,0.0,19.46
mehamn,778707.0,71.04,27.85,8.83,99.0,100.0,19.66
cockburn town,3576994.0,21.46,-71.14,80.6,78.0,40.0,12.75
ust-nera,2120048.0,64.57,143.2,-34.13,100.0,39.0,1.77
bairiki,7601762.0,1.33,172.98,87.8,74.0,75.0,5.82
sjovegan,3139516.0,68.87,17.85,30.99,62.0,100.0,16.11
bichura,2026708.0,50.59,107.6,-16.28,94.0,56.0,3.27
roald,3141667.0,62.58,6.13,41.0,75.0,40.0,13.87
carrefour,3728338.0,18.54,-72.4,86.0,55.0,20.0,4.7
sur,286245.0,22.57,59.53,64.18,62.0,7.0,4.94
saint anthony,5044290.0,45.02,-93.22,36.0,64.0,90.0,9.17
seversk,1538637.0,56.6,84.89,5.0,84.0,94.0,2.24
rio gallegos,3838859.0,-51.62,-69.22,62.6,54.0,75.0,14.99
ranong,1150965.0,9.97,98.63,79.3,76.0,18.0,6.98
tateyama,1850523.0,34.98,139.87,46.4,31.0,20.0,16.11
songjianghe,2034691.0,42.19,127.48,5.38,87.0,0.0,4.29
nizhniy tsasuchey,2019118.0,50.52,115.13,-10.05,83.0,0.0,9.55
maarianhamina,3041732.0,60.1,19.93,41.0,100.0,90.0,13.87
prado,3452483.0,-17.34,-39.22,80.1,86.0,3.0,15.48
